,City,Lat,Lng,Max Temp,Humidity,Cloudiness,Wind Speed,Country,City Rain,City Snow,Weather Description,Date
0,Vaini,-21.2,-175.2,80.6,88,75,11.41,TO,0.0,0.0,light intensity shower rain,2020-02-09 21:06:44
1,Khandyga,62.67,135.6,-23.4,68,0,2.19,RU,0.0,0.0,clear sky,2020-02-09 21:06:45
2,Nizhniy Chir,48.36,43.09,8.73,87,0,4.79,RU,0.0,0.0,clear sky,2020-02-09 21:06:45
3,Hobart,-42.88,147.33,62.6,63,75,5.82,AU,0.0,0.0,broken clouds,2020-02-09 21:06:34
4,Busselton,-33.65,115.33,55.0,42,0,13.56,AU,0.0,0.0,clear sky,2020-02-09 21:06:45
5,Dikson,73.51,80.55,-15.77,89,0,4.7,RU,0.0,0.0,clear sky,2020-02-09 21:06:45
6,Fairbanks,64.84,-147.72,25.0,85,90,3.04,US,0.0,0.0,light snow,2020-02-09 21:06:46
7,Atuona,-9.8,-139.03,81.32,76,55,18.86,PF,0.0,0.0,broken clouds,2020-02-09 21:06:46
8,Mataura,-46.19,168.86,55.0,80,88,10.0,NZ,0.0,0.0,overcast clouds,2020-02-09 21:06:46
9,Nikolskoye,59.7,30.79,37.0,83,75,11.18,RU,0.0,0.0,broken clouds,2020-02-09 21:06:46
10,Wajima,37.4,136.9,36.81,64,95,12.95,JP,0.0,0.0,overcast clouds,2020-02-09 21:06:46
11,Itapaci,-14.95,-49.55,67.42,97,100,9.01,BR,6.25,0.0,moderate rain,2020-02-09 21:06:47
12,Husavik,66.04,-17.34,28.4,86,75,17.22,IS,0.0,0.0,broken clouds,2020-02-09 21:06:47
13,Castro,-24.79,-50.01,72.95,96,84,1.66,BR,4.31,0.0,moderate rain,2020-02-09 21:06:47
14,Bethel,41.37,-73.41,46.0,69,90,5.82,US,0.0,0.0,overcast clouds,2020-02-09 21:06:47
15,Kapaa,22.08,-159.32,75.2,50,90,17.22,US,0.0,0.0,overcast clouds,2020-02-09 21:06:47
16,Portlethen,57.05,-2.13,41.0,67,2,17.22,GB,0.0,0.0,clear sky,2020-02-09 21:06:48
17,Cape Town,-33.93,18.42,70.0,93,5,23.04,ZA,0.0,0.0,clear sky,2020-02-09 21:03:33
18,Palmer,42.16,-72.33,37.0,63,90,5.84,US,0.0,0.0,light intensity drizzle,2020-02-09 21:06:48
19,Chingola,-12.53,27.88,65.82,94,100,5.08,ZM,3.13,0.0,moderate rain,2020-02-09 21:06:48
20,Ahipara,-35.17,173.17,69.01,77,7,3.0,NZ,0.0,0.0,clear sky,2020-02-09 21:06:48
21,Polunochnoye,60.87,60.42,10.42,82,100,8.75,RU,0.0,0.0,overcast clouds,2020-02-09 21:06:49
22,Atar,20.52,-13.05,69.82,12,100,9.04,MR,0.0,0.0,overcast clouds,2020-02-09 21:06:49
23,Port Elizabeth,-33.92,25.57,69.8,88,90,3.36,ZA,0.0,0.0,overcast clouds,2020-02-09 21:06:49
24,Ancud,-41.87,-73.82,73.4,53,77,5.82,CL,0.0,0.0,broken clouds,2020-02-09 21:06:49
25,Tura,25.52,90.22,55.89,45,0,3.02,IN,0.0,0.0,clear sky,2020-02-09 21:06:49
26,Thompson,55.74,-97.86,6.8,71,75,3.36,CA,0.0,0.0,light snow,2020-02-09 21:06:49
27,Kavieng,-2.57,150.8,82.74,78,100,15.95,PG,0.0,0.0,overcast clouds,2020-02-09 21:06:50
28,Ushuaia,-54.8,-68.3,68.0,40,75,9.17,AR,0.0,0.0,broken clouds,2020-02-09 21:03:07
29,Raudeberg,61.99,5.14,44.6,93,75,23.04,NO,2.29,0.0,light intensity shower rain,2020-02-09 21:06:50
30,Tuatapere,-46.13,167.68,55.0,80,5,10.0,NZ,0.0,0.0,clear sky,2020-02-09 21:06:50
31,Vilcun,-38.65,-72.23,84.2,45,25,12.75,CL,0.0,0.0,scattered clouds,2020-02-09 21:06:50
32,Yarmolyntsi,49.19,26.84,30.0,77,51,5.99,UA,0.0,0.0,broken clouds,2020-02-09 21:06:51
33,Rikitea,-23.12,-134.97,77.77,78,18,18.54,PF,0.0,0.0,few clouds,2020-02-09 21:06:51
34,Tabory,58.52,64.55,-2.99,92,0,8.43,RU,0.0,0.0,clear sky,2020-02-09 21:06:51
35,Punta Arenas,-53.15,-70.92,64.4,59,75,10.29,CL,0.0,0.0,broken clouds,2020-02-09 21:03:59
36,Meulaboh,4.14,96.13,81.73,75,99,8.72,ID,3.69,0.0,moderate rain,2020-02-09 21:06:51
37,Kodiak,57.79,-152.41,33.8,69,1,4.7,US,0.0,0.0,clear sky,2020-02-09 21:06:51
38,Kahului,20.89,-156.47,75.2,60,20,3.36,US,0.0,0.0,few clouds,2020-02-09 21:04:48
39,Fortuna,40.6,-124.16,59.0,57,1,10.29,US,0.0,0.0,clear sky,2020-02-09 21:02:40
40,Yar-Sale,66.83,70.83,-8.34,95,20,8.43,RU,0.0,0.0,few clouds,2020-02-09 21:06:52
41,Pathein,16.78,94.73,75.99,64,0,10.92,MM,0.0,0.0,clear sky,2020-02-09 21:06:52
42,Faanui,-16.48,-151.75,82.54,81,0,20.07,PF,0.0,0.0,clear sky,2020-02-09 21:06:52
43,Barrow,71.29,-156.79,-25.6,74,90,10.29,US,0.0,0.0,overcast clouds,2020-02-09 21:06:53
44,Hermanus,-34.42,19.23,70.0,89,0,1.01,ZA,0.0,0.0,clear sky,2020-02-09 21:06:53
45,Butaritari,3.07,172.79,84.36,80,29,17.52,KI,0.13,0.0,light rain,2020-02-09 21:06:53
46,Savonlinna,61.87,28.92,35.6,93,90,18.34,FI,0.0,0.0,overcast clouds,2020-02-09 21:06:53
47,Inhambane,-23.86,35.38,82.04,84,34,12.28,MZ,0.0,0.0,scattered clouds,2020-02-09 21:06:53
48,Severo-Kurilsk,50.68,156.12,20.91,89,100,6.46,RU,0.0,0.56,light snow,2020-02-09 21:06:54
49,Mar Del Plata,-38.0,-57.56,63.0,59,75,16.11,AR,0.0,0.0,broken clouds,2020-02-09 21:06:32
50,Albany,42.6,-73.97,33.01,63,90,5.7,US,0.0,0.0,overcast clouds,2020-02-09 21:05:27
51,Iqaluit,63.75,-68.51,-23.01,67,20,4.7,CA,0.0,0.0,few clouds,2020-02-09 21:04:27
52,East London,-33.02,27.91,73.49,72,100,4.54,ZA,0.19,0.0,light rain,2020-02-09 21:06:54
53,Dingle,11.0,122.67,72.5,92,95,12.82,PH,0.56,0.0,light rain,2020-02-09 21:06:55
54,Paso De Carrasco,-34.86,-56.05,69.8,52,75,16.11,UY,0.0,0.0,broken clouds,2020-02-09 21:06:55
55,Milazzo,38.22,15.24,54.0,87,0,4.05,IT,0.0,0.0,clear sky,2020-02-09 21:06:55
56,Saskylakh,71.92,114.08,-11.22,98,95,4.41,RU,0.0,0.13,light snow,2020-02-09 21:06:55
57,Maihar,24.27,80.75,51.62,56,0,0.11,IN,0.0,0.0,clear sky,2020-02-09 21:06:56
58,Luanda,-8.84,13.23,82.4,78,20,9.17,AO,0.0,0.0,few clouds,2020-02-09 21:06:56
59,Souillac,-20.52,57.52,77.0,83,40,12.75,MU,0.0,0.0,scattered clouds,2020-02-09 21:06:56
60,Bayan,46.08,127.4,1.29,95,99,7.05,CN,0.0,0.0,overcast clouds,2020-02-09 21:06:56
61,Whitianga,-36.83,175.7,70.0,61,7,5.01,NZ,0.0,0.0,clear sky,2020-02-09 21:06:57
62,Kashin,57.36,37.61,27.01,90,97,12.75,RU,0.0,0.0,overcast clouds,2020-02-09 21:06:57
63,Bredasdorp,-34.53,20.04,69.8,77,28,2.24,ZA,0.13,0.0,light rain,2020-02-09 21:06:57
64,Zadar,44.12,15.24,45.0,93,20,5.82,HR,0.0,0.0,few clouds,2020-02-09 21:06:57
65,Paamiut,61.99,-49.67,7.84,73,72,7.14,GL,0.0,0.0,broken clouds,2020-02-09 21:06:57
66,Los Llanos De Aridane,28.66,-17.92,66.2,72,20,16.11,ES,0.0,0.0,few clouds,2020-02-09 21:06:57
67,Geraldton,-28.77,114.6,64.4,68,0,12.75,AU,0.0,0.0,clear sky,2020-02-09 21:06:58
68,Luderitz,-26.65,15.16,71.6,68,0,25.28,NA,0.0,0.0,clear sky,2020-02-09 21:06:58
69,Port Alfred,-33.59,26.89,68.0,95,92,7.52,ZA,0.19,0.0,light rain,2020-02-09 21:06:58
70,Sorland,67.67,12.69,37.98,74,100,21.72,NO,0.0,0.0,overcast clouds,2020-02-09 21:06:58
71,San Patricio,19.22,-104.7,86.0,70,5,11.41,MX,0.0,0.0,clear sky,2020-02-09 21:06:58
72,Matagami,49.75,-77.63,17.6,78,90,14.99,CA,0.0,0.0,light snow,2020-02-09 21:06:59
73,College,64.86,-147.8,25.0,85,90,1.95,US,0.0,0.0,light snow,2020-02-09 21:06:59
74,Hithadhoo,-0.6,73.08,81.91,75,99,11.36,MV,0.0,0.0,overcast clouds,2020-02-09 21:06:59
75,Avarua,-21.21,-159.78,84.2,79,100,17.13,CK,0.0,0.0,overcast clouds,2020-02-09 21:06:59
76,Dunedin,-45.87,170.5,55.76,77,50,18.28,NZ,0.0,0.0,scattered clouds,2020-02-09 21:02:35
77,Sao Felix Do Xingu,-6.64,-51.99,78.91,87,73,1.41,BR,0.19,0.0,light rain,2020-02-09 21:06:59
78,Cockburn Town,21.46,-71.14,82.4,65,40,17.22,TC,0.0,0.0,scattered clouds,2020-02-09 21:07:00
79,Cabo San Lucas,22.89,-109.91,73.99,64,90,3.36,MX,0.0,0.0,overcast clouds,2020-02-09 21:06:31
80,Sitka,57.05,-135.33,39.2,93,90,4.7,US,0.0,0.0,mist,2020-02-09 21:07:00
81,Ca Mau,9.18,105.15,74.84,75,100,8.25,VN,0.0,0.0,overcast clouds,2020-02-09 21:07:00
82,Sinnamary,5.38,-52.95,79.2,72,99,14.65,GF,0.0,0.0,overcast clouds,2020-02-09 21:07:00
83,Upernavik,72.79,-56.15,-18.65,94,14,2.57,GL,0.0,0.0,few clouds,2020-02-09 21:07:01
84,Bengkulu,-3.8,102.27,73.24,83,100,2.71,ID,0.0,0.0,overcast clouds,2020-02-09 21:07:01
85,Mundo Nuevo,18.7,-95.5,82.89,74,28,7.43,MX,0.0,0.0,scattered clouds,2020-02-09 21:07:01
86,North Bend,43.41,-124.22,48.99,75,40,8.05,US,0.0,0.0,scattered clouds,2020-02-09 21:07:01
87,Aleksandrov Gay,50.15,48.57,10.63,79,7,6.29,RU,0.0,0.0,clear sky,2020-02-09 21:07:01
88,Tuktoyaktuk,69.45,-133.04,-25.6,67,75,3.36,CA,0.0,0.0,light snow,2020-02-09 21:03:05
89,Kenai,60.55,-151.26,37.99,74,90,20.8,US,0.25,0.0,light rain,2020-02-09 21:07:02
90,Gornopravdinsk,60.05,69.9,-6.84,94,0,7.18,RU,0.0,0.0,clear sky,2020-02-09 21:07:02
91,Qaanaaq,77.48,-69.36,-8.27,60,0,3.87,GL,0.0,0.0,clear sky,2020-02-09 21:07:02
92,Goundam,16.41,-3.67,74.03,9,100,9.93,ML,0.0,0.0,overcast clouds,2020-02-09 21:07:02
93,Itacoatiara,-3.14,-58.44,78.57,92,53,3.69,BR,3.0,0.0,light rain,2020-02-09 21:07:02
94,Lagoa,39.05,-27.98,62.26,91,100,8.1,PT,0.0,0.0,overcast clouds,2020-02-09 21:07:02
95,Ilulissat,69.22,-51.1,-2.02,97,100,6.82,GL,0.0,0.19,light snow,2020-02-09 21:07:03
96,San Quintin,30.48,-115.95,57.22,70,100,7.38,MX,0.0,0.0,overcast clouds,2020-02-09 21:02:56
97,Kropotkin,45.44,40.58,20.34,67,34,5.7,RU,0.0,0.0,scattered clouds,2020-02-09 21:07:03
98,Naryan-Mar,67.67,53.09,23.38,93,100,13.31,RU,0.0,0.0,overcast clouds,2020-02-09 21:07:03
99,Tyrma,50.08,132.17,-13.49,94,58,0.74,RU,0.0,0.0,broken clouds,2020-02-09 21:07:03
100,Sharqpur,31.46,74.1,50.0,81,40,1.05,PK,0.0,0.0,smoke,2020-02-09 21:07:04
101,Sikonge,-5.63,32.77,69.8,94,20,1.99,TZ,0.0,0.0,few clouds,2020-02-09 21:07:04
102,Freeport,40.66,-73.58,48.0,49,90,15.93,US,0.25,0.0,light rain,2020-02-09 21:07:04
103,Karakol,42.49,78.39,25.81,45,97,4.63,KG,0.0,0.0,overcast clouds,2020-02-09 21:07:04
104,Bowmore,34.94,-79.3,57.0,30,1,4.7,US,0.0,0.0,clear sky,2020-02-09 21:07:05
105,Vangaindrano,-23.35,47.6,73.11,94,100,0.96,MG,0.81,0.0,light rain,2020-02-09 21:07:05
106,Murmashi,68.82,32.81,32.0,88,75,6.71,RU,0.0,0.0,broken clouds,2020-02-09 21:07:05
107,Gat,31.61,34.76,48.2,70,75,3.36,IL,0.0,0.0,broken clouds,2020-02-09 21:04:01
108,Ulladulla,-35.35,150.47,70.0,100,75,9.17,AU,0.0,0.0,broken clouds,2020-02-09 21:07:05
109,Saldanha,-33.01,17.94,66.2,77,0,18.34,ZA,0.0,0.0,clear sky,2020-02-09 21:07:06
110,Beterou,9.2,2.26,79.18,17,30,2.21,BJ,0.0,0.0,scattered clouds,2020-02-09 21:07:06
111,Nelson Bay,-32.72,152.15,70.0,100,75,1.83,AU,0.0,0.0,mist,2020-02-09 21:07:06
112,Carutapera,-1.2,-46.02,81.18,81,100,13.98,BR,0.0,0.0,overcast clouds,2020-02-09 21:07:06
113,Pyinmana,19.73,96.22,64.92,45,8,2.89,MM,0.0,0.0,clear sky,2020-02-09 21:07:06
114,Mogadishu,2.04,45.34,80.01,83,51,15.9,SO,0.0,0.0,broken clouds,2020-02-09 21:07:07
115,Xining,36.62,101.77,19.17,42,0,3.83,CN,0.0,0.0,clear sky,2020-02-09 21:07:07
116,Baherden,38.44,57.43,51.85,53,100,18.52,TM,7.56,0.0,moderate rain,2020-02-09 21:07:07
117,Kegums,56.75,24.72,37.4,77,99,23.04,LV,0.0,0.0,overcast clouds,2020-02-09 21:07:07
118,Tyup,42.73,78.36,25.81,45,97,4.63,KG,0.0,0.0,overcast clouds,2020-02-09 21:07:07
119,Tasiilaq,65.61,-37.64,26.6,63,100,18.34,GL,0.0,0.0,overcast clouds,2020-02-09 21:07:08
120,Lebu,-37.62,-73.65,69.57,49,42,11.12,CL,0.0,0.0,scattered clouds,2020-02-09 21:07:08
121,Zhangye,38.93,100.45,31.19,18,0,6.71,CN,0.0,0.0,clear sky,2020-02-09 21:07:08
122,Hilo,19.73,-155.09,77.0,57,1,8.05,US,0.0,0.0,clear sky,2020-02-09 21:02:31
123,Akureyri,65.68,-18.09,28.4,86,75,17.22,IS,0.0,0.0,broken clouds,2020-02-09 21:07:08
124,Elverum,60.88,11.56,41.0,97,100,12.93,NO,4.0,0.0,moderate rain,2020-02-09 21:07:08
125,Novikovo,51.15,37.89,19.83,71,39,12.59,RU,0.0,0.0,scattered clouds,2020-02-09 21:07:09
126,Mandera,3.94,41.87,85.91,28,0,7.92,KE,0.0,0.0,clear sky,2020-02-09 21:07:09
127,Kalabo,-14.97,22.68,67.59,93,100,5.32,ZM,0.13,0.0,light rain,2020-02-09 21:07:09
128,Clyde River,70.47,-68.59,-13.0,69,90,17.22,CA,0.0,0.0,overcast clouds,2020-02-09 21:07:09
129,Natal,-5.79,-35.21,86.0,70,40,18.34,BR,0.0,0.0,scattered clouds,2020-02-09 21:05:41
130,Georgetown,5.41,100.34,80.6,74,20,6.93,MY,0.0,0.0,few clouds,2020-02-09 21:07:10
131,Acarau,-2.89,-40.12,78.53,82,75,5.59,BR,0.0,0.0,broken clouds,2020-02-09 21:07:10
132,Half Moon Bay,37.46,-122.43,63.0,23,1,21.92,US,0.0,0.0,clear sky,2020-02-09 21:04:00
133,Saint-Joseph,-21.37,55.62,75.2,88,75,12.75,RE,0.0,0.0,broken clouds,2020-02-09 21:07:11
134,Linxia,35.6,103.21,27.82,55,8,1.7,CN,0.0,0.0,clear sky,2020-02-09 21:07:11
135,Twentynine Palms,34.14,-116.05,69.8,19,20,10.29,US,0.0,0.0,haze,2020-02-09 21:02:13
136,Kavaratti,10.57,72.64,79.05,64,2,1.77,IN,0.0,0.0,clear sky,2020-02-09 21:07:12
137,Jamestown,42.1,-79.24,37.4,81,90,8.05,US,0.0,0.0,overcast clouds,2020-02-09 21:07:12
138,Vestmannaeyjar,63.44,-20.27,30.72,70,100,12.75,IS,0.0,0.13,light snow,2020-02-09 21:07:12
139,Marsa Matruh,31.35,27.25,51.8,62,40,10.29,EG,0.0,0.0,scattered clouds,2020-02-09 21:07:12
140,Puerto Ayora,-0.74,-90.35,86.0,62,20,13.87,EC,0.0,0.0,few clouds,2020-02-09 21:07:12
141,Saint Anthony,45.02,-93.22,27.0,68,1,9.17,US,0.0,0.34,light snow,2020-02-09 21:07:13
142,Hanzhong,33.07,107.03,43.65,59,97,1.59,CN,0.0,0.0,overcast clouds,2020-02-09 21:07:13
143,Petrov Val,50.14,45.21,5.56,85,69,7.63,RU,0.0,0.0,broken clouds,2020-02-09 21:07:13
144,Oranjemund,-28.55,16.43,64.78,86,73,18.75,NA,0.0,0.0,broken clouds,2020-02-09 21:07:13
145,Cherskiy,68.75,161.3,-19.46,70,0,10.33,RU,0.0,0.0,clear sky,2020-02-09 21:07:13
146,Porto Novo,6.5,2.6,82.4,88,20,4.7,BJ,0.0,0.0,few clouds,2020-02-09 21:07:14
147,Makakilo City,21.35,-158.09,77.0,50,90,10.27,US,0.0,0.0,overcast clouds,2020-02-09 21:07:14
148,La Ronge,55.1,-105.28,23.0,57,75,3.36,CA,0.0,0.0,broken clouds,2020-02-09 21:07:14
149,Vila Praia De Ancora,41.81,-8.85,61.0,100,90,6.93,PT,0.0,0.0,light rain,2020-02-09 21:07:14
150,Aksarka,66.56,67.8,-2.83,94,80,9.78,RU,0.0,0.0,broken clouds,2020-02-09 21:07:14
151,Airai,-8.93,125.41,66.87,91,100,3.67,TL,0.0,0.0,overcast clouds,2020-02-09 21:07:14
152,Yulara,-25.24,130.99,87.8,18,1,13.87,AU,0.0,0.0,clear sky,2020-02-09 21:07:15
153,Pisco,-13.7,-76.22,72.0,30,72,20.8,PE,0.0,0.0,broken clouds,2020-02-09 21:07:15
154,Santa Elena,-2.23,-80.85,84.2,74,2,9.17,EC,0.0,0.0,clear sky,2020-02-09 21:02:17
155,Nueve De Julio,-35.44,-60.88,82.99,29,0,3.0,AR,0.0,0.0,clear sky,2020-02-09 21:07:15
156,Valdivia,-39.81,-73.25,86.0,40,94,4.7,CL,0.0,0.0,overcast clouds,2020-02-09 21:07:15
157,Estelle,29.85,-90.11,72.0,56,90,20.8,US,0.0,0.0,overcast clouds,2020-02-09 21:07:16
158,Alofi,-19.06,-169.92,80.6,88,75,10.29,NU,0.0,0.0,broken clouds,2020-02-09 21:07:16
159,Mezen,65.85,44.24,31.98,96,100,12.26,RU,0.0,0.19,light snow,2020-02-09 21:07:16
160,Opuwo,-18.06,13.84,69.19,40,0,9.37,NA,0.0,0.0,clear sky,2020-02-09 21:07:16
161,Port Hardy,50.7,-127.42,44.6,81,75,3.36,CA,0.0,0.0,broken clouds,2020-02-09 21:07:16
162,Sao Filipe,14.9,-24.5,70.99,65,0,22.73,CV,0.0,0.0,clear sky,2020-02-09 21:07:16
163,Arraial Do Cabo,-22.97,-42.03,91.4,55,40,9.17,BR,0.0,0.0,scattered clouds,2020-02-09 21:07:17
164,Longyearbyen,78.22,15.64,14.0,61,5,21.92,SJ,0.0,0.0,clear sky,2020-02-09 21:07:17
165,Qixingtai,30.41,111.89,46.99,80,99,6.17,CN,0.0,0.0,overcast clouds,2020-02-09 21:07:17
166,Moberly,39.42,-92.44,48.99,100,90,8.28,US,0.38,0.0,light rain,2020-02-09 21:03:59
167,Deputatskiy,69.3,139.9,-35.95,82,19,0.94,RU,0.0,0.0,few clouds,2020-02-09 21:07:17
168,Bereda,43.27,-7.54,62.01,77,75,14.99,ES,0.0,0.0,broken clouds,2020-02-09 21:07:17
169,Vila Franca Do Campo,37.72,-25.43,60.8,82,20,7.81,PT,0.0,0.0,few clouds,2020-02-09 21:07:18
170,Yarmouth,41.71,-70.23,37.99,59,40,8.05,US,0.0,0.0,scattered clouds,2020-02-09 21:07:18
171,Mirnyy,62.54,113.96,6.8,92,40,8.95,RU,0.0,0.0,light snow,2020-02-09 21:07:18
172,Provideniya,64.38,-173.3,-7.6,69,100,6.71,RU,0.0,0.19,light snow,2020-02-09 21:07:18
173,Rapla,59.01,24.79,39.99,80,20,19.46,EE,0.0,0.0,few clouds,2020-02-09 21:07:18
174,Wewak,-3.55,143.63,77.16,87,97,10.76,PG,2.94,0.0,light rain,2020-02-09 21:07:18
175,Charcas,23.13,-101.12,77.27,14,0,13.38,MX,0.0,0.0,clear sky,2020-02-09 21:07:19
176,Jimenez,28.33,-105.4,75.2,16,75,16.11,MX,0.0,0.0,broken clouds,2020-02-09 21:07:19
177,Mount Isa,-20.73,139.5,71.6,88,88,5.3,AU,0.0,0.0,overcast clouds,2020-02-09 21:07:19
178,Shonguy,68.75,33.15,32.0,91,75,6.71,RU,0.0,0.0,broken clouds,2020-02-09 21:07:19
179,Yellowknife,62.46,-114.35,0.0,84,75,6.93,CA,0.0,0.0,light snow,2020-02-09 21:07:19
180,Bluff,-46.6,168.33,55.0,80,94,10.0,NZ,0.0,0.0,overcast clouds,2020-02-09 21:07:20
181,Cidreira,-30.18,-50.21,74.97,70,1,19.64,BR,0.19,0.0,light rain,2020-02-09 21:07:20
182,Klaksvik,62.23,-6.59,35.6,66,100,4.7,FO,0.0,0.0,light rain,2020-02-09 21:07:20
183,Hilton Head Island,32.22,-80.75,62.6,50,1,9.17,US,0.0,0.0,haze,2020-02-09 21:05:39
184,Dauphin,51.15,-100.05,23.0,73,1,11.41,CA,0.0,0.0,clear sky,2020-02-09 21:07:20
185,Jiuquan,39.74,98.52,26.4,12,0,8.03,CN,0.0,0.0,clear sky,2020-02-09 21:07:21
186,San Diego De La Union,21.47,-100.87,79.0,31,0,8.01,MX,0.0,0.0,clear sky,2020-02-09 21:07:21
187,Usinsk,65.99,57.53,11.61,94,100,20.62,RU,0.0,1.13,light snow,2020-02-09 21:07:21
188,Superior,46.72,-92.1,24.01,57,75,4.7,US,0.0,0.0,broken clouds,2020-02-09 21:07:22
189,Emmett,43.87,-116.5,48.2,48,1,11.41,US,0.0,0.0,clear sky,2020-02-09 21:07:22
190,Nabire,-3.37,135.48,71.89,98,100,2.86,ID,3.88,0.0,moderate rain,2020-02-09 21:07:22
191,Epitalion,37.63,21.5,42.8,87,40,7.94,GR,0.0,0.0,scattered clouds,2020-02-09 21:07:22
192,San Cristobal,7.77,-72.22,86.0,51,40,12.75,VE,0.0,0.0,scattered clouds,2020-02-09 21:07:22
193,Berlevag,70.86,29.09,24.8,85,75,29.97,NO,0.0,0.0,broken clouds,2020-02-09 21:03:04
194,Surt,31.21,16.59,53.73,68,0,7.11,LY,0.0,0.0,clear sky,2020-02-09 21:07:23
195,Trinidad,-14.83,-64.9,77.0,94,75,4.56,BO,0.0,0.0,broken clouds,2020-02-09 21:07:23
196,Ribeira Grande,38.52,-28.7,62.6,93,75,4.7,PT,0.0,0.0,broken clouds,2020-02-09 21:07:23
197,High Level,58.52,-117.14,26.6,73,20,6.93,CA,0.0,0.0,few clouds,2020-02-09 21:07:23
198,Soe,-9.86,124.28,74.57,79,95,3.74,ID,0.0,0.0,overcast clouds,2020-02-09 21:07:23
199,Mozarlandia,-14.74,-50.57,70.47,95,100,11.25,BR,0.94,0.0,light rain,2020-02-09 21:07:23
200,Santa Cruz,-17.8,-63.17,84.2,83,75,5.82,BO,0.0,0.0,light rain,2020-02-09 21:05:26
201,Poum,-20.23,164.02,79.65,84,100,33.98,NC,2.0,0.0,light rain,2020-02-09 21:07:24
202,Moose Factory,51.26,-80.61,17.6,72,90,12.75,CA,0.0,0.0,light snow,2020-02-09 21:07:24
203,Tazovskiy,67.47,78.7,-9.49,98,85,6.82,RU,0.0,0.0,overcast clouds,2020-02-09 21:07:24
204,Asau,46.43,26.4,30.99,92,0,14.99,RO,0.0,0.0,clear sky,2020-02-09 21:07:24
205,Kananga,-5.9,22.42,71.06,93,100,3.94,CD,0.75,0.0,light rain,2020-02-09 21:07:24
206,Aquiraz,-3.9,-38.39,84.2,74,20,9.17,BR,0.0,0.0,few clouds,2020-02-09 21:04:20
207,Lincoln,40.8,-96.67,36.0,69,75,25.28,US,0.0,0.0,broken clouds,2020-02-09 21:06:43
208,Norman Wells,65.28,-126.83,-0.4,77,90,4.7,CA,0.0,0.0,light snow,2020-02-09 21:07:25
209,New Norfolk,-42.78,147.06,62.6,63,75,5.82,AU,0.0,0.0,broken clouds,2020-02-09 21:07:25
210,Paracatu,-17.22,-46.87,70.03,92,79,6.13,BR,3.44,0.0,moderate rain,2020-02-09 21:07:25
211,Maku,39.29,44.45,6.31,62,100,6.87,IR,0.0,0.0,overcast clouds,2020-02-09 21:07:25
212,Kailua,21.4,-157.74,77.0,46,40,6.93,US,0.0,0.0,scattered clouds,2020-02-09 21:07:26
213,Tuy Hoa,13.08,109.3,74.86,79,100,23.35,VN,0.75,0.0,light rain,2020-02-09 21:07:26
214,Semey,50.41,80.23,32.7,97,100,17.13,KZ,0.0,0.75,light snow,2020-02-09 21:07:26
215,Port Blair,11.67,92.75,79.77,74,59,13.15,IN,0.0,0.0,broken clouds,2020-02-09 21:02:59
216,Mintiu Gherlii,47.05,23.95,26.6,73,5,3.36,RO,0.0,0.0,clear sky,2020-02-09 21:07:26
217,Jiehu,35.54,118.45,38.03,77,23,3.24,CN,0.0,0.0,few clouds,2020-02-09 21:07:26
218,Sobolevo,54.43,31.9,29.3,86,55,17.43,RU,0.0,0.0,broken clouds,2020-02-09 21:07:27
219,Constantine,36.37,6.61,44.6,87,20,2.24,DZ,0.0,0.0,few clouds,2020-02-09 21:07:27
220,Chokurdakh,70.63,147.92,-29.97,85,0,3.8,RU,0.0,0.0,clear sky,2020-02-09 21:07:27
221,Katsuura,35.13,140.3,37.4,51,75,12.75,JP,0.0,0.0,broken clouds,2020-02-09 21:07:27
222,Kaitangata,-46.28,169.85,54.52,80,86,18.75,NZ,0.0,0.0,overcast clouds,2020-02-09 21:07:14
223,Kysyl-Syr,63.9,122.76,-15.81,95,100,12.84,RU,0.0,0.0,overcast clouds,2020-02-09 21:07:27
224,Ankazoabo,-22.28,44.52,71.17,81,4,4.92,MG,0.0,0.0,clear sky,2020-02-09 21:07:28
225,Nisia Floresta,-6.09,-35.21,86.0,70,40,18.34,BR,0.0,0.0,scattered clouds,2020-02-09 21:07:28
226,Constitucion,-35.33,-72.42,67.1,61,12,10.13,CL,0.0,0.0,few clouds,2020-02-09 21:07:28
227,Umm Kaddadah,13.6,26.69,63.36,16,0,15.14,SD,0.0,0.0,clear sky,2020-02-09 21:07:28
228,Chibuto,-24.69,33.53,78.96,81,82,8.95,MZ,1.25,0.0,light rain,2020-02-09 21:07:28
229,Bathsheba,13.22,-59.52,79.92,72,0,21.16,BB,0.0,0.0,clear sky,2020-02-09 21:07:28
230,Tolaga Bay,-38.37,178.3,64.45,74,0,10.6,NZ,0.0,0.0,clear sky,2020-02-09 21:07:29
231,Sandpoint,48.28,-116.55,37.0,74,40,11.41,US,0.0,0.0,scattered clouds,2020-02-09 21:07:29
232,Sarangani,5.4,125.46,80.22,72,96,6.4,PH,0.0,0.0,overcast clouds,2020-02-09 21:07:29
233,Pangnirtung,66.15,-65.71,-22.0,67,40,2.24,CA,0.0,0.0,scattered clouds,2020-02-09 21:07:29
234,Talara,-4.58,-81.27,62.6,100,0,10.29,PE,0.0,0.0,clear sky,2020-02-09 21:07:29
235,Ventersburg,-28.09,27.14,64.83,69,21,3.87,ZA,0.0,0.0,few clouds,2020-02-09 21:07:29
236,Hearst,49.68,-83.67,20.95,81,100,7.78,CA,0.0,0.0,overcast clouds,2020-02-09 21:07:30
237,Chuy,-33.7,-53.46,68.65,58,9,14.29,UY,0.0,0.0,clear sky,2020-02-09 21:07:30
238,Jebel,45.56,21.21,46.4,79,0,10.29,RO,0.0,0.0,clear sky,2020-02-09 21:07:30
239,Katobu,-4.94,122.53,75.09,93,100,4.81,ID,4.81,0.0,moderate rain,2020-02-09 21:07:30
240,Bambous Virieux,-20.34,57.76,77.0,83,40,12.75,MU,0.0,0.0,scattered clouds,2020-02-09 21:07:30
241,Naze,28.37,129.48,59.0,54,75,18.34,JP,0.0,0.0,broken clouds,2020-02-09 21:07:31
242,Hamilton,39.18,-84.53,37.99,80,90,16.11,US,0.38,0.0,light rain,2020-02-09 21:05:32
243,Barguzin,53.62,109.62,15.1,85,100,4.07,RU,0.0,0.0,overcast clouds,2020-02-09 21:07:31
244,Lodja,-3.48,23.43,72.3,98,100,1.07,CD,7.44,0.0,moderate rain,2020-02-09 21:07:31
245,San Andres,12.58,-81.7,86.0,62,20,13.87,CO,0.0,0.0,few clouds,2020-02-09 21:07:31
246,Daru,-9.08,143.21,75.74,95,100,5.77,PG,0.0,0.0,overcast clouds,2020-02-09 21:07:31
247,Bartica,6.4,-58.62,84.2,62,40,16.11,GY,0.0,0.0,scattered clouds,2020-02-09 21:07:32
248,Ilheus,-14.79,-39.05,86.0,74,40,4.7,BR,0.0,0.0,scattered clouds,2020-02-09 21:07:32
249,Saint-Augustin,51.23,-58.65,6.24,76,0,18.23,CA,0.0,0.0,clear sky,2020-02-09 21:07:32
250,Okato,-39.2,173.88,66.0,55,50,4.0,NZ,0.0,0.0,scattered clouds,2020-02-09 21:07:32
251,Itoman,26.12,127.67,59.0,51,75,12.75,JP,0.0,0.0,broken clouds,2020-02-09 21:07:32
252,Fare,-16.7,-151.02,82.74,81,30,18.9,PF,0.25,0.0,light rain,2020-02-09 21:07:33
253,Bell Ville,-32.63,-62.69,75.0,77,90,1.99,AR,0.0,0.0,overcast clouds,2020-02-09 21:07:33
254,Belmonte,-15.86,-38.88,86.0,70,40,8.05,BR,0.0,0.0,scattered clouds,2020-02-09 21:07:33
255,Agadez,19.75,10.25,65.34,14,1,8.3,NE,0.0,0.0,clear sky,2020-02-09 21:07:33
256,Burnie,-41.07,145.92,63.0,64,100,8.01,AU,0.0,0.0,overcast clouds,2020-02-09 21:07:33
257,Sao Miguel Do Araguaia,-13.28,-50.16,71.44,97,98,3.47,BR,0.69,0.0,light rain,2020-02-09 21:07:34
258,Thisted,56.96,8.69,46.0,93,100,15.99,DK,1.25,0.0,light rain,2020-02-09 21:07:34
259,Mount Gambier,-37.83,140.77,62.6,82,100,8.05,AU,0.0,0.0,overcast clouds,2020-02-09 21:07:34
260,Nantucket,41.28,-70.1,39.2,60,1,11.41,US,0.0,0.0,clear sky,2020-02-09 21:07:05
261,Fort Nelson,58.81,-122.7,41.0,41,75,19.46,CA,0.0,0.0,broken clouds,2020-02-09 21:07:34
262,Atikokan,48.76,-91.62,14.83,91,98,5.55,CA,0.0,0.0,overcast clouds,2020-02-09 21:07:35
263,Tiksi,71.69,128.87,-6.5,85,100,18.54,RU,0.0,0.0,overcast clouds,2020-02-09 21:07:35
264,Mahebourg,-20.41,57.7,77.0,83,40,12.75,MU,0.0,0.0,scattered clouds,2020-02-09 21:07:35
265,Carnarvon,-24.87,113.63,75.2,78,6,18.34,AU,0.0,0.0,clear sky,2020-02-09 21:07:35
266,Havelock,34.88,-76.9,55.99,46,1,5.82,US,0.0,0.0,clear sky,2020-02-09 21:07:35
267,Esperance,-33.87,121.9,55.4,76,75,8.05,AU,0.0,0.0,broken clouds,2020-02-09 21:07:35
268,Henties Bay,-22.12,14.28,64.0,90,4,3.0,NA,0.0,0.0,clear sky,2020-02-09 21:07:36
269,Saint George,37.1,-113.58,54.0,43,90,14.99,US,0.0,0.0,overcast clouds,2020-02-09 21:02:56
270,Boguchany,58.38,97.45,18.28,96,100,2.44,RU,0.0,0.63,light snow,2020-02-09 21:07:36
271,Yerbogachen,61.28,108.01,17.56,84,100,11.52,RU,0.0,0.38,light snow,2020-02-09 21:07:36
272,Vostok,46.49,135.88,-13.77,86,100,0.51,RU,0.0,0.0,overcast clouds,2020-02-09 21:07:36
273,Borgarnes,64.54,-21.92,27.0,79,0,2.24,IS,0.0,0.0,clear sky,2020-02-09 21:07:36
274,Arlit,18.74,7.39,71.56,13,0,15.01,NE,0.0,0.0,clear sky,2020-02-09 21:07:37
275,Bogovarovo,58.98,47.02,24.84,94,100,10.11,RU,0.0,0.25,light snow,2020-02-09 21:07:37
276,Whitehorse,60.72,-135.05,35.6,34,75,13.87,CA,0.0,0.0,broken clouds,2020-02-09 21:06:28
277,Oga,46.46,10.35,34.0,68,90,18.34,IT,0.0,0.0,overcast clouds,2020-02-09 21:07:37
278,Lompoc,34.64,-120.46,63.0,41,1,13.31,US,0.0,0.0,clear sky,2020-02-09 21:07:37
279,Sept-Iles,50.2,-66.38,12.2,47,75,12.75,CA,0.0,0.0,broken clouds,2020-02-09 21:06:04
280,Ponta Do Sol,32.67,-17.1,64.4,68,20,8.05,PT,0.0,0.0,few clouds,2020-02-09 21:07:22
281,Rivers,50.03,-100.24,19.4,67,75,13.87,CA,0.0,0.0,broken clouds,2020-02-09 21:07:38
282,Honiara,-9.43,159.95,80.6,88,75,6.93,SB,0.0,0.0,broken clouds,2020-02-09 21:07:38
283,Tautira,-17.73,-149.15,87.8,66,40,10.29,PF,0.0,0.0,shower rain,2020-02-09 21:07:38
284,Lensk,60.73,114.93,12.27,96,100,4.32,RU,0.0,0.44,light snow,2020-02-09 21:07:38
285,Okha,53.57,142.95,-2.29,97,98,13.49,RU,0.0,0.0,overcast clouds,2020-02-09 21:07:39
286,Broome,42.25,-75.83,37.0,79,40,6.93,US,0.51,0.0,light rain,2020-02-09 21:07:39
287,Manbij,36.53,37.95,21.2,57,0,1.12,SY,0.0,0.0,clear sky,2020-02-09 21:07:39
288,Jingdezhen,29.29,117.21,42.49,83,61,2.26,CN,0.0,0.0,broken clouds,2020-02-09 21:07:39
289,Marystown,47.17,-55.15,22.3,76,56,17.56,CA,0.0,0.0,broken clouds,2020-02-09 21:07:39
290,Margate,51.38,1.39,52.0,76,40,24.16,GB,0.0,0.0,scattered clouds,2020-02-09 21:07:39
291,Khatanga,71.97,102.5,-17.18,94,0,6.02,RU,0.0,0.0,clear sky,2020-02-09 21:07:40
292,Antofagasta,-23.65,-70.4,71.6,64,75,14.99,CL,0.0,0.0,broken clouds,2020-02-09 21:07:32
293,Nanortalik,60.14,-45.24,22.57,61,73,47.92,GL,0.0,0.0,broken clouds,2020-02-09 21:07:40
294,Kagoro,9.6,8.38,68.0,37,81,6.93,NG,0.0,0.0,haze,2020-02-09 21:07:40
295,Greensburg,40.3,-79.54,37.99,74,1,8.05,US,0.51,0.0,light rain,2020-02-09 21:07:40
296,Rena,61.13,11.36,30.99,97,100,12.93,NO,4.0,0.0,moderate rain,2020-02-09 21:07:41
297,Zhigansk,66.77,123.37,-8.72,87,100,13.09,RU,0.0,0.0,overcast clouds,2020-02-09 21:07:41
298,Saint-Philippe,-21.36,55.77,75.2,88,75,12.75,RE,0.0,0.0,broken clouds,2020-02-09 21:07:41
299,Jacqueville,5.21,-4.41,86.0,79,9,8.05,CI,0.0,0.0,clear sky,2020-02-09 21:07:41
300,Wick,58.43,-3.08,39.2,86,99,19.46,GB,1.19,0.0,light rain,2020-02-09 21:03:04
301,Jalu,29.03,21.55,54.75,54,0,5.75,LY,0.0,0.0,clear sky,2020-02-09 21:07:41
302,Talnakh,69.49,88.4,-14.8,83,0,4.47,RU,0.0,0.0,clear sky,2020-02-09 21:07:42
303,Olafsvik,64.89,-23.71,26.22,73,87,16.91,IS,0.0,0.0,overcast clouds,2020-02-09 21:07:42
304,Pevek,69.7,170.31,-31.32,98,92,5.84,RU,0.0,0.0,overcast clouds,2020-02-09 21:07:42
305,Bukama,-9.2,25.85,71.53,96,100,0.54,CD,2.69,0.0,light rain,2020-02-09 21:07:42
306,Camocim,-2.9,-40.84,77.04,94,79,4.07,BR,1.31,0.0,light rain,2020-02-09 21:07:42
307,Coihaique,-45.58,-72.07,73.4,40,40,8.05,CL,0.0,0.0,scattered clouds,2020-02-09 21:07:42
308,Cedar City,37.68,-113.06,30.2,86,90,8.05,US,0.0,0.0,light snow,2020-02-09 21:07:43
309,Codrington,-38.27,141.97,64.56,81,100,11.25,AU,0.0,0.0,overcast clouds,2020-02-09 21:07:43
310,Torbay,47.67,-52.73,19.99,52,20,16.11,CA,0.0,0.0,few clouds,2020-02-09 21:07:43
311,Vohibinany,-17.35,49.03,65.61,95,2,2.17,MG,0.0,0.0,clear sky,2020-02-09 21:07:43
312,Komsomolskiy,40.43,71.72,46.4,52,100,4.79,UZ,0.0,0.0,overcast clouds,2020-02-09 21:07:43
313,Sakakah,29.97,40.21,48.2,79,75,11.41,SA,0.0,0.0,broken clouds,2020-02-09 21:07:44
314,Taltal,-25.4,-70.48,68.14,65,84,8.03,CL,0.0,0.0,broken clouds,2020-02-09 21:07:44
315,Goure,13.98,10.27,73.0,14,40,14.0,NE,0.0,0.0,scattered clouds,2020-02-09 21:07:44
316,San Juan De Uraba,8.76,-76.53,81.16,79,100,12.53,CO,0.0,0.0,overcast clouds,2020-02-09 21:07:44
317,Bansi,27.18,82.93,51.82,68,0,7.43,IN,0.0,0.0,clear sky,2020-02-09 21:07:44
318,Kenora,49.82,-94.43,14.0,78,100,13.87,CA,0.0,0.0,overcast clouds,2020-02-09 21:07:44
319,Severodvinsk,64.56,39.83,30.2,92,75,6.71,RU,0.0,0.0,light snow,2020-02-09 21:07:45
320,Narsaq,60.92,-46.05,17.6,67,100,3.36,GL,0.0,0.69,light snow,2020-02-09 21:03:04
321,Acheng,45.55,126.98,-0.4,84,40,2.24,CN,0.0,0.0,mist,2020-02-09 21:07:45
322,Dongsheng,39.82,109.98,28.29,36,0,13.0,CN,0.0,0.0,clear sky,2020-02-09 21:07:45
323,Zilair,52.23,57.44,-9.18,89,0,3.94,RU,0.0,0.0,clear sky,2020-02-09 21:07:45
324,Casablanca,33.59,-7.62,61.0,93,40,8.05,MA,0.0,0.0,scattered clouds,2020-02-09 21:04:04
325,Lata,40.16,-8.33,57.2,87,90,3.36,PT,0.0,0.0,overcast clouds,2020-02-09 21:07:46
326,Camacha,33.08,-16.33,64.4,72,40,6.93,PT,0.0,0.0,scattered clouds,2020-02-09 21:07:46
327,Petropavlovsk-Kamchatskiy,53.05,158.65,21.2,62,87,11.18,RU,0.0,0.0,overcast clouds,2020-02-09 21:06:20
328,Caravelas,-17.71,-39.25,81.28,82,0,16.31,BR,0.0,0.0,clear sky,2020-02-09 21:07:46
329,Nalut,30.33,10.85,53.8,26,0,10.76,LY,0.0,0.0,clear sky,2020-02-09 21:07:30
330,Kununurra,-15.77,128.73,80.6,74,100,5.82,AU,0.0,0.0,overcast clouds,2020-02-09 21:07:46
331,Halifax,44.65,-63.57,27.0,45,20,6.93,CA,0.0,0.0,few clouds,2020-02-09 21:04:38
332,Puertollano,38.69,-4.11,48.99,90,100,2.04,ES,0.0,0.0,overcast clouds,2020-02-09 21:07:47
333,Ouadda,8.08,22.4,76.55,17,0,8.7,CF,0.0,0.0,clear sky,2020-02-09 21:07:47
334,Talcahuano,-36.72,-73.12,75.2,50,0,10.29,CL,0.0,0.0,clear sky,2020-02-09 21:07:47
335,Ferrol,43.48,-8.24,61.0,77,75,14.99,ES,0.0,0.0,broken clouds,2020-02-09 21:07:47
336,Adrar,20.5,-10.07,70.09,10,0,11.65,MR,0.0,0.0,clear sky,2020-02-09 21:07:47
337,Morondava,-20.28,44.28,76.23,85,6,4.18,MG,0.13,0.0,light rain,2020-02-09 21:07:48
338,Healdsburg,38.61,-122.87,63.0,25,1,8.05,US,0.0,0.0,clear sky,2020-02-09 21:07:48
339,Khorixas,-20.37,14.97,68.32,45,0,8.61,NA,0.0,0.0,clear sky,2020-02-09 21:07:48
340,Manaure,11.78,-72.44,84.2,70,0,19.46,CO,0.0,0.0,clear sky,2020-02-09 21:07:48
341,Akyab,20.15,92.9,67.57,59,0,7.25,MM,0.0,0.0,clear sky,2020-02-09 21:07:48
342,Salgueiro,-8.07,-39.12,82.51,59,95,0.51,BR,0.0,0.0,overcast clouds,2020-02-09 21:07:48
343,Nemuro,43.32,145.57,22.1,77,83,34.36,JP,0.0,0.0,broken clouds,2020-02-09 21:07:49
344,Bentiu,9.23,29.83,78.94,19,0,8.37,SS,0.0,0.0,clear sky,2020-02-09 21:07:49
345,Rawson,-43.3,-65.1,62.4,73,0,25.75,AR,0.0,0.0,clear sky,2020-02-09 21:07:22
346,Kloulklubed,7.04,134.26,77.0,94,90,4.7,PW,0.0,0.0,overcast clouds,2020-02-09 21:07:49
347,Butembo,0.15,29.28,66.61,52,16,4.81,CD,0.0,0.0,few clouds,2020-02-09 21:07:49
348,Laytown,53.68,-6.24,44.01,86,75,13.87,IE,0.0,0.0,broken clouds,2020-02-09 21:07:49
349,Dillon,34.42,-79.37,57.2,37,1,4.56,US,0.0,0.0,clear sky,2020-02-09 21:07:49
350,Conceicao Do Araguaia,-8.26,-49.26,75.18,85,100,2.21,BR,0.0,0.0,overcast clouds,2020-02-09 21:07:50
351,Alta Floresta,-9.88,-56.09,73.4,100,90,3.36,BR,0.0,0.0,light rain,2020-02-09 21:07:50
352,Derzhavinsk,51.1,66.32,-2.0,97,96,8.32,KZ,0.0,0.0,overcast clouds,2020-02-09 21:07:50
353,Guerrero Negro,27.98,-114.06,65.21,60,100,7.49,MX,0.0,0.0,overcast clouds,2020-02-09 21:07:31
354,Havre-Saint-Pierre,50.23,-63.6,10.4,78,90,24.16,CA,0.0,0.0,light snow,2020-02-09 21:07:50
355,Kamenka,51.32,42.77,15.01,84,35,1.99,RU,0.0,0.0,scattered clouds,2020-02-09 21:07:50
356,Kyren,51.68,102.14,23.29,55,100,10.78,RU,0.0,0.0,overcast clouds,2020-02-09 21:07:51
357,Cam Ranh,11.92,109.16,78.8,74,75,17.22,VN,0.0,0.0,broken clouds,2020-02-09 21:07:51
358,Ludza,56.55,27.72,32.5,78,54,15.9,LV,0.0,0.0,broken clouds,2020-02-09 21:07:51
359,Bardiyah,31.76,25.09,55.47,58,44,9.13,LY,0.0,0.0,scattered clouds,2020-02-09 21:07:51
360,Kang,-23.68,22.79,78.76,39,0,6.64,BW,0.0,0.0,clear sky,2020-02-09 21:07:51
361,Bonthe,7.53,-12.51,79.43,79,16,7.87,SL,0.0,0.0,few clouds,2020-02-09 21:07:52
362,Hualmay,-11.1,-77.61,77.43,60,53,9.17,PE,0.0,0.0,broken clouds,2020-02-09 21:07:52
363,Victoria,22.29,114.16,60.8,72,40,8.05,HK,0.0,0.0,scattered clouds,2020-02-09 21:07:52
364,Andenes,69.31,16.12,37.4,74,100,13.87,NO,0.0,0.0,overcast clouds,2020-02-09 21:07:52
365,Pitimbu,-7.47,-34.81,84.2,74,40,16.11,BR,0.0,0.0,scattered clouds,2020-02-09 21:07:52
366,Ucluelet,48.93,-125.55,46.0,70,20,4.7,CA,0.0,0.0,few clouds,2020-02-09 21:07:53
367,Rincon,32.3,-81.24,64.4,40,1,5.82,US,0.0,0.0,clear sky,2020-02-09 21:07:53
368,Cabra,37.47,-4.44,54.0,81,100,1.12,ES,0.0,0.0,overcast clouds,2020-02-09 21:07:53
369,Ardesen,41.19,40.99,28.4,100,90,4.7,TR,0.0,0.0,light snow,2020-02-09 21:07:53
370,Takaka,-40.85,172.8,72.0,78,0,1.99,NZ,0.0,0.0,clear sky,2020-02-09 21:07:53
371,Svetlogorsk,52.63,29.73,29.71,80,66,14.88,BY,0.0,0.0,broken clouds,2020-02-09 21:07:54
372,Bandarbeyla,9.49,50.81,76.06,76,100,19.28,SO,0.0,0.0,overcast clouds,2020-02-09 21:07:54
373,Grand Forks,47.93,-97.03,24.8,85,1,6.96,US,0.0,0.0,clear sky,2020-02-09 21:07:02
374,Tundla,27.2,78.28,52.72,63,81,2.86,IN,0.0,0.0,broken clouds,2020-02-09 21:07:54
375,Muros,42.78,-9.06,61.0,100,75,12.75,ES,0.0,0.0,drizzle,2020-02-09 21:07:54
376,Lovozero,68.0,35.01,21.15,90,46,6.22,RU,0.0,0.0,scattered clouds,2020-02-09 21:07:54
377,Salta,-24.79,-65.41,82.4,69,40,10.29,AR,0.0,0.0,shower rain,2020-02-09 21:05:05
378,Panaba,21.28,-88.27,85.12,56,20,13.94,MX,0.0,0.0,few clouds,2020-02-09 21:07:29
379,Kisangani,0.52,25.2,75.88,78,0,3.67,CD,0.0,0.0,clear sky,2020-02-09 21:09:10
380,Ambilobe,-13.2,49.05,74.73,92,19,5.06,MG,2.06,0.0,light rain,2020-02-09 21:09:10
381,Isangel,-19.55,169.27,80.6,88,90,9.17,VU,0.0,0.0,overcast clouds,2020-02-09 21:09:10
382,Pyaozerskiy,65.83,31.17,32.34,85,98,15.73,RU,0.0,0.0,overcast clouds,2020-02-09 21:09:11
383,Port Shepstone,-30.74,30.45,68.52,88,50,4.97,ZA,0.0,0.0,scattered clouds,2020-02-09 21:09:11
384,Beni Mazar,28.5,30.8,44.69,70,0,11.68,EG,0.0,0.0,clear sky,2020-02-09 21:09:11
385,Korhogo,9.45,-5.63,77.86,12,37,1.14,CI,0.0,0.0,scattered clouds,2020-02-09 21:09:11
386,Toyooka,35.53,134.83,26.94,84,35,5.19,JP,0.0,0.0,scattered clouds,2020-02-09 21:09:11
387,Kosh-Agach,50.0,88.67,6.98,56,31,2.01,RU,0.0,0.0,scattered clouds,2020-02-09 21:09:12
388,Kapit,2.02,112.93,72.45,99,100,2.21,MY,7.69,0.0,moderate rain,2020-02-09 21:09:12
389,Komatipoort,-25.43,31.95,72.0,95,100,5.99,ZA,0.31,0.0,light rain,2020-02-09 21:09:12
390,Cayenne,4.93,-52.33,82.4,69,75,11.41,GF,0.0,0.0,broken clouds,2020-02-09 21:09:12
391,Birjand,32.87,59.22,59.0,33,40,18.34,IR,0.0,0.0,scattered clouds,2020-02-09 21:09:12
392,Sao Jose Da Coroa Grande,-8.9,-35.15,82.9,74,100,8.46,BR,0.0,0.0,overcast clouds,2020-02-09 21:09:12
393,Faya,18.39,42.45,60.8,77,0,8.05,SA,0.0,0.0,clear sky,2020-02-09 21:09:13
394,La Palma,33.85,-118.05,61.0,82,90,4.7,US,0.96,0.0,light rain,2020-02-09 21:09:13
395,La Macarena,2.18,-73.78,93.72,29,56,8.61,CO,0.0,0.0,broken clouds,2020-02-09 21:09:13
396,Krasnoselkup,65.7,82.47,-21.24,99,65,7.99,RU,0.0,0.0,broken clouds,2020-02-09 21:09:13
397,Tambacounda,13.75,-13.76,89.6,7,0,6.93,SN,0.0,0.0,clear sky,2020-02-09 21:09:13
398,Cairns,-16.92,145.77,80.6,78,90,6.93,AU,0.0,0.0,light intensity shower rain,2020-02-09 21:09:14
399,Veraval,20.9,70.37,66.07,31,20,11.36,IN,0.0,0.0,few clouds,2020-02-09 21:09:14
400,Atkarsk,51.87,45.01,3.79,89,77,9.78,RU,0.0,0.0,broken clouds,2020-02-09 21:09:14
401,Lulea,65.58,22.15,33.8,97,90,25.28,SE,0.0,0.0,light snow,2020-02-09 21:09:14
402,Trelew,-43.25,-65.31,74.34,39,7,24.05,AR,0.0,0.0,clear sky,2020-02-09 21:09:14
403,Pithora,21.27,82.52,56.52,38,77,3.65,IN,0.0,0.0,broken clouds,2020-02-09 21:09:15
404,Aitape,-3.14,142.35,82.54,78,100,22.1,PG,0.81,0.0,light rain,2020-02-09 21:09:15
405,Mahabad,36.76,45.72,17.69,60,19,6.6,IR,0.0,0.0,few clouds,2020-02-09 21:09:15
406,Vanavara,60.34,102.28,6.93,94,100,5.01,RU,0.0,0.0,overcast clouds,2020-02-09 21:07:58
407,Srednekolymsk,67.45,153.68,-25.37,52,0,2.51,RU,0.0,0.0,clear sky,2020-02-09 21:09:16
408,Avera,33.19,-82.53,60.01,47,1,4.7,US,0.0,0.0,clear sky,2020-02-09 21:09:16
409,Assiniboia,49.63,-105.98,24.96,73,100,19.82,CA,0.0,0.0,overcast clouds,2020-02-09 21:09:16
410,Kolondieba,11.09,-6.89,76.06,10,0,3.51,ML,0.0,0.0,clear sky,2020-02-09 21:09:16
411,Lodwar,3.12,35.6,84.34,41,17,2.89,KE,0.0,0.0,few clouds,2020-02-09 21:09:16
412,Shitkino,56.37,98.35,32.99,97,100,7.05,RU,0.0,0.63,light snow,2020-02-09 21:09:17
413,Tezu,27.92,96.17,53.37,89,67,2.82,IN,0.81,0.0,light rain,2020-02-09 21:09:17
414,Kasongo-Lunda,-6.47,16.82,72.23,86,48,2.33,CD,0.0,0.0,scattered clouds,2020-02-09 21:09:17
415,Tonami,37.0,137.73,28.99,62,81,1.99,JP,0.0,0.0,broken clouds,2020-02-09 21:09:18
416,Sawakin,19.11,37.33,69.8,60,0,18.34,SD,0.0,0.0,clear sky,2020-02-09 21:09:18
417,Kosa,59.94,55.0,15.15,93,100,9.6,RU,0.0,0.63,light snow,2020-02-09 21:09:18
418,Povenets,62.85,34.83,34.56,97,100,12.97,RU,0.13,0.0,light rain,2020-02-09 21:09:18
419,Lima,-12.04,-77.03,77.0,73,75,11.41,PE,0.0,0.0,broken clouds,2020-02-09 21:06:00
420,Portland,45.52,-122.68,45.0,75,90,10.29,US,0.0,0.0,overcast clouds,2020-02-09 21:09:28
421,Haines Junction,60.75,-137.51,19.35,96,100,10.6,CA,0.0,0.0,overcast clouds,2020-02-09 21:10:34
422,Taoudenni,22.68,-3.98,71.89,10,100,11.92,ML,0.0,0.0,overcast clouds,2020-02-09 21:10:34
423,Akdepe,42.06,59.38,41.0,59,90,11.41,TM,0.0,0.0,overcast clouds,2020-02-09 21:10:34
424,Skjold,55.8,9.94,48.2,93,100,24.16,DK,11.19,0.0,moderate rain,2020-02-09 21:10:34
425,Ostrovnoy,68.05,39.51,28.2,87,73,19.37,RU,0.0,0.0,broken clouds,2020-02-09 21:10:35
426,Kilindoni,-7.91,39.67,82.44,78,80,12.66,TZ,0.0,0.0,broken clouds,2020-02-09 21:08:42
427,Puerto Narino,-3.77,-70.38,91.4,66,75,4.7,CO,0.0,0.0,shower rain,2020-02-09 21:10:35
428,Petrozavodsk,61.78,34.35,33.8,90,100,17.9,RU,0.0,0.0,overcast clouds,2020-02-09 21:10:35
429,Baruun-Urt,46.68,113.28,13.71,80,64,8.55,MN,0.0,0.0,broken clouds,2020-02-09 21:10:35
430,Lavrentiya,65.58,-171.0,-13.16,92,100,4.85,RU,0.0,0.0,overcast clouds,2020-02-09 21:10:36
431,Maralal,1.1,36.7,63.64,68,73,9.73,KE,0.0,0.0,broken clouds,2020-02-09 21:10:36
432,Te Anau,-45.42,167.72,48.45,84,30,2.51,NZ,0.0,0.0,scattered clouds,2020-02-09 21:10:36
433,Bagotville,-28.98,153.42,71.6,94,90,5.55,AU,0.0,0.0,overcast clouds,2020-02-09 21:10:36
434,Angra Dos Reis,-23.01,-44.32,93.2,44,75,8.05,BR,0.0,0.0,broken clouds,2020-02-09 21:10:36
435,Port Hawkesbury,45.62,-61.35,19.99,66,1,6.93,CA,0.0,0.0,clear sky,2020-02-09 21:06:16
436,Tateyama,34.98,139.87,37.4,51,75,12.75,JP,0.0,0.0,broken clouds,2020-02-09 21:10:37
437,Port Lincoln,-34.73,135.87,70.65,74,0,3.83,AU,0.0,0.0,clear sky,2020-02-09 21:10:37
438,Malim,7.45,123.43,79.11,80,67,9.84,PH,0.0,0.0,broken clouds,2020-02-09 21:10:37
439,Teya,60.38,92.63,-4.9,98,90,1.77,RU,0.0,0.0,overcast clouds,2020-02-09 21:10:37
440,Muravlenko,63.79,74.52,-4.58,92,100,10.65,RU,0.0,0.0,overcast clouds,2020-02-09 21:10:37
441,Lorengau,-2.02,147.27,82.74,77,66,14.43,PG,0.0,0.0,broken clouds,2020-02-09 21:10:37
442,Kathmandu,27.72,85.32,42.8,87,20,2.24,NP,0.0,0.0,mist,2020-02-09 21:10:38
443,Mumford,5.26,-0.76,80.49,76,2,5.61,GH,0.0,0.0,clear sky,2020-02-09 21:10:38
444,Ziarat,30.38,67.73,33.19,52,100,4.32,PK,0.0,0.0,overcast clouds,2020-02-09 21:10:38
445,Ketchikan,55.34,-131.65,42.8,87,90,5.82,US,0.0,0.0,overcast clouds,2020-02-09 21:10:38
446,Sioux Lookout,50.1,-91.92,14.0,72,90,8.05,CA,0.0,0.0,light snow,2020-02-09 21:08:45
447,Hami,42.8,93.45,21.2,37,1,1.16,CN,0.0,0.0,clear sky,2020-02-09 21:10:39
448,Tias,28.96,-13.64,66.2,77,20,16.11,ES,0.0,0.0,few clouds,2020-02-09 21:10:39
449,Anadyr,64.75,177.48,-18.0,75,40,13.42,RU,0.0,0.0,scattered clouds,2020-02-09 21:10:39
450,Namibe,-15.2,12.15,74.88,77,0,11.79,AO,0.0,0.0,clear sky,2020-02-09 21:10:39
451,Gombong,-7.61,109.51,72.32,85,100,1.48,ID,0.0,0.0,overcast clouds,2020-02-09 21:10:39
452,Longyan,25.11,117.02,43.38,96,0,1.9,CN,0.0,0.0,clear sky,2020-02-09 21:10:40
453,Smidovich,48.6,133.82,-12.95,94,100,3.94,RU,0.0,0.0,overcast clouds,2020-02-09 21:10:40
454,Oswego,43.45,-76.15,37.99,80,20,10.29,US,0.0,0.76,snow,2020-02-09 21:10:40
455,Matai,-8.3,31.52,66.2,88,40,1.81,TZ,0.0,0.0,scattered clouds,2020-02-09 21:09:04
456,Megion,61.03,76.11,-14.8,83,82,4.47,RU,0.0,0.0,broken clouds,2020-02-09 21:10:40
457,Tirumullaivasal,11.23,79.83,79.79,70,86,14.03,IN,0.0,0.0,overcast clouds,2020-02-09 21:10:40
458,Bolshaya Sosnova,57.67,54.6,10.17,94,100,14.79,RU,0.0,1.44,light snow,2020-02-09 21:10:41
459,Kamaishi,39.27,141.88,19.31,67,0,5.46,JP,0.0,0.0,clear sky,2020-02-09 21:10:41
460,Lasa,46.62,10.7,41.0,60,75,3.36,IT,0.0,0.0,broken clouds,2020-02-09 21:10:41
461,Gravdal,68.12,13.5,37.4,69,75,18.34,NO,0.0,0.0,broken clouds,2020-02-09 21:10:41
462,Katherine,-14.47,132.27,82.4,83,90,10.29,AU,0.0,0.0,overcast clouds,2020-02-09 21:10:41
463,Potsdam,52.4,13.07,55.0,62,100,20.8,DE,0.0,0.0,light rain,2020-02-09 21:10:41
464,Magadan,59.57,150.8,1.94,55,100,11.03,RU,0.0,0.0,overcast clouds,2020-02-09 21:10:42
465,Namatanai,-3.67,152.43,83.28,73,100,7.72,PG,0.75,0.0,light rain,2020-02-09 21:10:42
466,Kambove,-10.88,26.6,63.59,95,100,2.82,CD,0.81,0.0,light rain,2020-02-09 21:10:42
467,Atocha,-20.93,-66.23,56.64,50,100,12.48,BO,0.13,0.0,light rain,2020-02-09 21:10:42
468,Richards Bay,-28.78,32.04,78.24,78,83,14.52,ZA,0.13,0.0,light rain,2020-02-09 21:10:43
469,Anchorage,61.22,-149.9,39.2,59,40,12.75,US,0.0,0.0,scattered clouds,2020-02-09 21:08:12
470,Santa Maria,-29.68,-53.81,84.2,51,40,10.29,BR,0.0,0.0,scattered clouds,2020-02-09 21:10:43
471,Kirakira,-10.45,161.92,81.34,82,92,15.9,SB,0.38,0.0,light rain,2020-02-09 21:10:43
472,Rotnes,60.06,10.86,45.0,100,90,21.92,NO,0.0,0.0,light rain,2020-02-09 21:10:43
473,Santa Maria Del Oro,25.93,-105.37,73.11,15,100,19.53,MX,0.0,0.0,overcast clouds,2020-02-09 21:10:43
474,Tahe,52.33,124.73,-8.41,98,100,2.95,CN,0.0,0.0,overcast clouds,2020-02-09 21:10:44
475,Filingue,14.35,3.32,77.65,14,0,11.14,NE,0.0,0.0,clear sky,2020-02-09 21:10:44
476,Cururupu,-1.83,-44.87,79.48,80,68,4.43,BR,0.0,0.0,broken clouds,2020-02-09 21:10:44
477,Donskoye,45.46,41.97,6.8,84,56,2.24,RU,0.0,0.0,broken clouds,2020-02-09 21:10:44
478,Yatou,37.15,122.38,37.38,64,0,3.22,CN,0.0,0.0,clear sky,2020-02-09 21:10:44
479,Along,28.17,94.77,47.91,89,0,3.96,IN,0.0,0.0,clear sky,2020-02-09 21:10:44
480,Kabompo,-13.59,24.2,67.28,95,100,5.21,ZM,0.5,0.0,light rain,2020-02-09 21:10:45
481,Bonavista,48.65,-53.11,18.0,63,0,11.01,CA,0.0,0.0,clear sky,2020-02-09 21:10:45
482,Benemerito De Las Americas,16.52,-90.64,86.56,48,87,3.15,MX,0.25,0.0,light rain,2020-02-09 21:10:45
483,Beihai,21.48,109.1,55.11,78,9,11.16,CN,0.0,0.0,clear sky,2020-02-09 21:10:45
484,Westport,41.14,-73.36,46.99,74,90,13.87,US,0.0,0.0,overcast clouds,2020-02-09 21:06:17
485,Vardo,70.37,31.11,28.4,79,75,35.57,NO,0.0,0.0,broken clouds,2020-02-09 21:10:45
486,Twante,16.72,95.93,73.4,83,6,2.24,MM,0.0,0.0,clear sky,2020-02-09 21:10:46
487,Tanete,-3.94,119.78,74.62,95,100,6.58,ID,2.69,0.0,light rain,2020-02-09 21:10:46
488,Pachperwa,27.52,82.65,51.75,68,0,7.78,IN,0.0,0.0,clear sky,2020-02-09 21:10:46
489,Ust-Tsilma,65.44,52.15,20.21,95,91,5.79,RU,0.0,0.0,overcast clouds,2020-02-09 21:10:46
490,Pagudpud,18.56,120.79,62.64,93,81,8.43,PH,0.31,0.0,light rain,2020-02-09 21:10:46
491,Zyryanka,65.75,150.85,-20.16,71,100,9.6,RU,0.0,0.0,overcast clouds,2020-02-09 21:10:47
492,Karlshamn,56.17,14.86,46.4,93,90,24.16,SE,0.0,0.0,light rain,2020-02-09 21:10:47
493,Vanimo,-2.67,141.3,81.99,79,100,23.96,PG,0.63,0.0,light rain,2020-02-09 21:10:47
494,Santa Vitoria Do Palmar,-33.52,-53.37,68.65,58,9,14.29,BR,0.0,0.0,clear sky,2020-02-09 21:10:47
495,Victoria Point,-27.58,153.3,75.99,94,75,3.36,AU,0.0,0.0,broken clouds,2020-02-09 21:10:47
496,Beringovskiy,63.05,179.32,-14.96,82,0,6.4,RU,0.0,0.0,clear sky,2020-02-09 21:10:47
497,Qadirpur Ran,30.29,71.67,53.6,81,75,2.71,PK,0.0,0.0,mist,2020-02-09 21:08:05
498,Lebedinyy,58.52,125.52,-0.78,83,88,12.1,RU,0.0,0.0,overcast clouds,2020-02-09 21:10:48
499,Bonfim,3.08,-59.95,92.95,34,44,13.11,BR,0.0,0.0,scattered clouds,2020-02-09 21:10:48
500,Boyolangu,-8.12,111.89,72.52,91,100,2.66,ID,0.0,0.0,overcast clouds,2020-02-09 21:10:48
501,Vao,-22.67,167.48,80.55,84,100,23.73,NC,0.0,0.0,overcast clouds,2020-02-09 21:10:48
502,Port Hedland,-20.32,118.57,82.4,83,75,12.75,AU,0.0,0.0,broken clouds,2020-02-09 21:10:48
503,Bucak,37.46,30.59,37.4,67,40,1.12,TR,0.0,0.0,scattered clouds,2020-02-09 21:10:49
504,Seymchan,62.88,152.43,-32.15,86,100,1.28,RU,0.0,0.0,overcast clouds,2020-02-09 21:10:49
505,Biu,10.61,12.19,78.06,21,0,17.9,NG,0.0,0.0,clear sky,2020-02-09 21:10:49
506,Buta,2.79,24.73,74.84,36,0,2.37,CD,0.0,0.0,clear sky,2020-02-09 21:10:49
507,Luganville,-15.53,167.17,74.17,97,100,5.64,VU,5.94,0.0,moderate rain,2020-02-09 21:10:49
508,Puerto Escondido,15.85,-97.07,86.0,79,75,6.93,MX,0.0,0.0,broken clouds,2020-02-09 21:08:05
509,Plunge,55.91,21.84,42.8,70,100,31.09,LT,0.0,0.0,overcast clouds,2020-02-09 21:10:50
510,Puro,12.48,123.38,76.35,77,91,19.51,PH,0.0,0.0,overcast clouds,2020-02-09 21:10:50
511,Sabang,5.89,95.32,82.4,72,35,13.62,ID,0.0,0.0,scattered clouds,2020-02-09 21:10:50
512,Aksu,41.12,80.26,27.21,57,1,3.94,CN,0.0,0.0,clear sky,2020-02-09 21:10:50
513,Cabedelo,-6.98,-34.83,84.2,74,40,16.11,BR,0.0,0.0,scattered clouds,2020-02-09 21:10:50
514,Vieste,41.88,16.18,51.01,81,40,2.24,IT,0.0,0.0,scattered clouds,2020-02-09 21:10:51
515,Son La,21.32,103.9,50.61,96,28,1.97,VN,0.0,0.0,scattered clouds,2020-02-09 21:10:51
516,Leningradskiy,69.38,178.42,-21.1,91,95,16.78,RU,0.0,0.0,overcast clouds,2020-02-09 21:07:32
517,Okhotsk,59.38,143.3,-7.76,64,87,3.85,RU,0.0,0.0,overcast clouds,2020-02-09 21:10:51
518,Sibolga,1.74,98.78,70.18,93,62,3.33,ID,0.0,0.0,broken clouds,2020-02-09 21:10:51
519,Mayo,38.89,-76.51,50.0,39,1,8.05,US,0.0,0.0,clear sky,2020-02-09 21:10:51
520,Baykit,61.67,96.37,-6.86,97,0,2.44,RU,0.0,0.0,clear sky,2020-02-09 21:10:51
521,Cartagena,10.4,-75.51,89.6,55,20,16.11,CO,0.0,0.0,few clouds,2020-02-09 21:06:09
522,Hasaki,35.73,140.83,24.8,73,20,5.82,JP,0.0,0.0,few clouds,2020-02-09 21:10:52
523,Ekhabi,53.51,142.97,-2.29,97,98,13.49,RU,0.0,0.0,overcast clouds,2020-02-09 21:10:52
524,Boca Do Acre,-8.75,-67.4,88.36,59,70,2.57,BR,0.0,0.0,broken clouds,2020-02-09 21:10:52
525,Wentzville,38.81,-90.85,59.0,71,90,13.87,US,0.0,0.0,overcast clouds,2020-02-09 21:10:52
526,Hirara,24.8,125.28,61.18,65,11,19.84,JP,0.0,0.0,few clouds,2020-02-09 21:10:53
527,Solnechnyy,50.72,136.63,-14.42,75,28,2.15,RU,0.0,0.0,scattered clouds,2020-02-09 21:10:53
528,Great Yarmouth,52.61,1.73,52.0,71,20,26.4,GB,0.0,0.0,few clouds,2020-02-09 21:10:53
529,Valparaiso,-33.04,-71.63,68.0,72,20,5.82,CL,0.0,0.0,few clouds,2020-02-09 21:10:53
530,Borna,51.12,12.5,57.0,46,100,27.51,DE,0.0,0.0,overcast clouds,2020-02-09 21:10:53
531,Kutum,14.2,24.67,54.68,20,95,6.31,SD,0.0,0.0,overcast clouds,2020-02-09 21:10:53
532,Padang,-0.95,100.35,67.28,91,100,4.21,ID,0.0,0.0,overcast clouds,2020-02-09 21:10:54
533,Rodrigues Alves,-7.74,-72.65,89.6,66,75,8.05,BR,0.0,0.0,broken clouds,2020-02-09 21:10:54
534,Qasigiannguit,68.82,-51.19,-2.02,97,100,6.82,GL,0.0,0.19,light snow,2020-02-09 21:10:54
535,Dehloran,32.69,47.27,48.0,43,0,6.8,IR,0.0,0.0,clear sky,2020-02-09 21:10:54
536,Kruisfontein,-34.0,24.73,65.61,90,31,4.97,ZA,0.0,0.0,scattered clouds,2020-02-09 21:10:54
537,Basoko,1.24,23.62,75.74,80,54,2.98,CD,0.0,0.0,broken clouds,2020-02-09 21:10:54
538,Bilibino,68.05,166.44,-22.56,55,0,2.42,RU,0.0,0.0,clear sky,2020-02-09 21:08:09
539,Grants,35.15,-107.85,51.8,21,1,15.37,US,0.0,0.0,clear sky,2020-02-09 21:10:55
540,Morden,49.19,-98.1,23.0,62,20,8.05,CA,0.0,0.0,few clouds,2020-02-09 21:08:21
541,Prince Rupert,54.32,-130.32,42.8,93,90,2.24,CA,0.0,0.0,overcast clouds,2020-02-09 21:06:12
542,Balikpapan,-1.27,116.83,80.69,78,100,12.64,ID,6.44,0.0,moderate rain,2020-02-09 21:09:12
543,Beloha,-25.17,45.05,73.54,81,0,9.57,MG,0.0,0.0,clear sky,2020-02-09 21:07:06
544,Kandrian,-6.22,149.55,74.59,95,99,4.34,PG,6.5,0.0,moderate rain,2020-02-09 21:10:56
545,Lubango,-14.92,13.49,62.82,86,94,1.66,AO,0.94,0.0,light rain,2020-02-09 21:10:56
546,Savannah Bight,16.45,-85.85,80.19,73,28,17.9,HN,0.44,0.0,light rain,2020-02-09 21:10:56
547,Necochea,-38.55,-58.74,61.0,72,0,4.0,AR,0.0,0.0,clear sky,2020-02-09 21:06:53
548,Partapur,23.6,74.17,53.13,33,0,8.43,IN,0.0,0.0,clear sky,2020-02-09 21:10:57
549,Atambua,-9.11,124.89,74.07,89,100,0.54,ID,2.44,0.0,light rain,2020-02-09 21:10:57
550,Bismil,37.85,40.67,23.0,67,40,3.36,TR,0.0,0.0,scattered clouds,2020-02-09 21:10:57
551,Nuuk,64.18,-51.72,10.4,72,75,6.93,GL,0.0,0.0,shower rain,2020-02-09 21:10:57
552,Kalengwa,-13.47,25.0,66.42,93,100,3.33,ZM,0.19,0.0,light rain,2020-02-09 21:10:57
553,Coquimbo,-29.95,-71.34,69.8,64,20,11.41,CL,0.0,0.0,few clouds,2020-02-09 21:10:57
554,Bulanash,57.28,62.0,-2.11,93,0,8.16,RU,0.0,0.0,clear sky,2020-02-09 21:10:58
555,Dawei,14.08,98.2,78.58,58,0,9.53,MM,0.0,0.0,clear sky,2020-02-09 21:08:03
556,Nago,26.59,127.98,59.0,51,75,12.75,JP,0.0,0.0,broken clouds,2020-02-09 21:10:58
557,Trincomalee,8.57,81.23,69.8,93,21,1.5,LK,0.13,0.0,light rain,2020-02-09 21:10:58
558,Spearfish,44.49,-103.86,30.0,73,1,8.95,US,0.0,0.0,clear sky,2020-02-09 21:10:58
559,Dali,25.7,100.18,45.27,97,99,3.87,CN,1.63,0.0,light rain,2020-02-09 21:10:59
560,Ust-Kuyga,70.02,135.6,-17.93,74,100,8.25,RU,0.0,0.0,overcast clouds,2020-02-09 21:10:59
561,Carballo,43.21,-8.69,61.0,77,75,14.99,ES,0.0,0.0,broken clouds,2020-02-09 21:08:54
562,Manoel Urbano,-8.84,-69.26,86.59,62,30,5.41,BR,0.13,0.0,light rain,2020-02-09 21:10:59
563,Kassala,15.45,36.4,64.18,64,0,8.21,SD,0.0,0.0,clear sky,2020-02-09 21:10:59
564,Qaqortoq,60.72,-46.03,17.6,67,100,4.7,GL,0.0,0.0,light snow,2020-02-09 21:10:59
565,Kaeo,-35.1,173.78,69.01,77,61,3.0,NZ,0.0,0.0,broken clouds,2020-02-09 21:06:44
